{
  "users": [
    {
      "name": "user@test.com",
      "password": "123",
      "role": "visitor"
    },
    {
      "name": "admin",
      "password": "123",
      "role": "admin"
    }
  ],
  "projects": [
    {
      "name": "México",
      "city": "MX",
      "longitude": "2",
      "latitude": "-72",
      "state": "active"
    },
    {
      "name": "Colombia",
      "city": "CO",
      "longitude": "-75.5636",
      "latitude": "6.2518",
      "state": "pending"
    },
    {
      "name": "Colombia",
      "city": "CO",
      "longitude": "-75.5636",
      "latitude": "6.2518",
      "state": "finished"
    },
    {
      "id": "85c5",
      "name": "dsa",
      "city": "das",
      "longitude": "1",
      "latitude": "1",
      "state": "finished"
    },
    {
      "id": "e1f4",
      "name": "Vigilar temperatura en Medellín",
      "city": "Medellín",
      "longitude": "-75.5636",
      "latitude": "6.2518",
      "state": "pending"
    },
    {
      "id": "416f",
      "name": "Temperatura en Miami",
      "city": "Miami",
      "longitude": "-80.1937",
      "latitude": "25.7743",
      "state": "finished"
    }
  ]
}